City_ID,City,Lat,Lng,Max Temp,Humidity,Cloudiness,Wind Speed,Country,Date
0,lionel town,17.8101,-77.2406,84.07,61,36,14.32,JM,1738340653
1,yanam,16.7333,82.2167,67.84,98,18,0.4,IN,1738340655
2,puerto natales,-51.7236,-72.4875,63.05,36,75,29.93,CL,1738340361
3,georgetown,5.4112,100.3354,82.33,56,20,9.22,MY,1738340379
4,lewistown,40.5992,-77.5714,36.61,100,100,0.0,US,1738340390
5,adamstown,-25.066,-130.1015,76.1,69,100,14.23,PN,1738340659
6,kaffrine,14.1059,-15.5508,95.54,6,0,14.94,SN,1738340660
7,waitangi,-43.9535,-176.5597,57.34,79,0,9.55,NZ,1738340662
8,sumenep,-7.0167,113.8667,77.65,88,100,10.54,ID,1738340663
9,souillac,-20.5167,57.5167,82.78,74,20,6.91,MU,1738340664
10,kapuskasing,49.4169,-82.4331,-3.91,77,75,5.75,CA,1738340665
11,nova sintra,14.8667,-24.7167,74.7,70,0,23.42,CV,1738340666
12,bontang,0.1333,117.5,78.06,84,100,1.16,ID,1738340650
13,grand forks,47.9417,-97.4337,1.78,65,75,19.57,US,1738340669
14,tofol,5.3248,163.0078,81.32,78,100,14.63,FM,1738340670
15,manado,1.487,124.8455,77.77,100,40,2.3,ID,1738340671
16,boguchany,58.3814,97.4531,-27.51,100,33,1.63,RU,1738340673
17,east london,-33.0153,27.9116,73.98,79,33,14.54,ZA,1738340674
18,ilulissat,69.2167,-51.1,26.62,36,75,14.97,GL,1738340675
19,port-aux-francais,-49.35,70.2167,41.58,78,10,43.04,TF,1738340676
20,domna,51.8971,113.1573,-29.04,68,48,2.24,RU,1738340677
21,qala i naw,34.9874,63.1289,34.2,68,48,3.36,AF,1738340679
22,blackmans bay,-43.0167,147.3167,62.73,85,40,5.75,AU,1738340680
23,codrington,-38.2667,141.9667,53.33,92,9,8.16,AU,1738340681
24,grytviken,-54.2811,-36.5092,55.42,67,31,15.7,GS,1738340469
25,wailua homesteads,22.0669,-159.378,70.59,86,75,4.61,US,1738340684
26,kodiak,57.79,-152.4072,24.31,74,0,14.97,US,1738340685
27,la almunia de dona godina,41.4767,-1.3745,51.62,45,4,13.15,ES,1738340686
28,albany,42.6001,-73.9662,36.63,74,100,2.17,US,1738340550
29,carnarvon,-24.8667,113.6333,81.93,73,17,16.46,AU,1738340688
30,iqaluit,63.7506,-68.5145,-0.31,77,75,19.57,CA,1738340690
31,tahara,34.6667,137.2667,39.94,50,81,19.15,JP,1738340691
32,cabo san lucas,22.8909,-109.9124,69.76,58,0,4.61,MX,1738340692
33,geraldton,-28.7667,114.6,75.61,83,100,13.8,AU,1738340695
34,igarka,67.4667,86.5833,-17.75,93,96,7.87,RU,1738340696
35,acarau,-2.8856,-40.12,85.8,65,97,13.42,BR,1738340697
36,lakatoro,-16.0999,167.4164,78.01,92,100,7.56,VU,1738340699
37,hawaiian paradise park,19.5933,-154.9731,74.71,96,75,9.22,US,1738340700
38,utrik,11.2278,169.8474,79.57,66,83,12.66,MH,1738340701
39,felipe carrillo puerto,19.5833,-88.05,85.37,60,20,7.78,MX,1738340703
40,enewetak,11.3474,162.3373,80.28,80,38,16.22,MH,1738340704
41,kavieng,-2.5744,150.7967,82.9,76,65,11.39,PG,1738340705
42,barcelos,41.5388,-8.6151,55.65,62,6,4.83,PT,1738340706
43,quellon,-43.1167,-73.6167,58.28,56,5,10.11,CL,1738340707
44,puerto ayora,-0.7393,-90.3518,79.56,90,71,1.99,EC,1738340709
45,cooma,-36.2333,149.1333,55.99,95,53,2.84,AU,1738340710
46,klyuchi,52.2667,79.1667,-1.46,99,89,6.42,RU,1738340713
47,bilibino,68.0546,166.4372,-46.79,100,84,2.68,RU,1738340714
48,ribeira grande,38.5167,-28.7,65.77,88,75,18.01,PT,1738340715
49,grand island,40.925,-98.342,35.38,79,0,18.41,US,1738340620
50,san jose de jachal,-30.2406,-68.7469,88.27,30,0,7.11,AR,1738340702
51,hami,42.8,93.45,27.19,52,100,3.49,CN,1738340718
52,papatowai,-46.5619,169.4708,52.21,89,53,4.09,NZ,1738340720
53,mount pearl,47.5166,-52.7813,22.44,69,75,36.82,CA,1738340721
54,carutapera,-1.195,-46.02,80.04,91,73,7.43,BR,1738340722
55,invercargill,-46.4,168.35,52.02,92,68,1.99,NZ,1738340724
56,jacutinga,-22.2856,-46.6122,72.88,86,100,3.29,BR,1738340726
57,chernyshevskiy,63.0128,112.4714,-36.24,100,70,1.57,RU,1738340727
58,magadan,59.5667,150.8,-11.94,82,2,8.46,RU,1738340728
59,tolanaro,-25.0319,46.9987,78.69,90,65,4.99,MG,1738340729
60,bredasdorp,-34.5322,20.0403,73.35,43,0,18.5,ZA,1738340730
61,ngereklmadel,7.4883,134.4856,78.89,94,75,10.36,PW,1738340731
62,fisterra,42.9049,-9.2629,53.22,77,100,5.95,ES,1738340733
63,longyearbyen,78.2186,15.6401,26.44,74,75,5.75,SJ,1738340553
64,cabcaben,14.454,120.5914,76.64,86,58,10.2,PH,1738340735
65,trondheim,63.4305,10.3951,35.65,92,37,1.99,NO,1738340736
66,phan rang-thap cham,11.5667,108.9833,68.45,91,97,3.94,VN,1738340738
67,chenzhou,25.8,113.0333,51.6,94,100,5.44,CN,1738340739
68,nuuk,64.1835,-51.7216,25.41,74,40,3.44,GL,1738340740
69,onsala,57.4253,12.029,32.95,86,5,8.46,SE,1738340741
70,antonio enes,-16.2325,39.9086,80.4,85,38,5.79,MZ,1738340743
71,yellowknife,62.456,-114.3525,-30.48,68,0,8.05,CA,1738340744
72,rongelap,11.1635,166.8941,79.2,68,94,14.56,MH,1738340746
73,edinburgh of the seven seas,-37.0676,-12.3116,62.65,80,21,19.19,SH,1738340634
74,vadso,70.0744,29.7487,30.36,93,100,4.61,NO,1738340749
75,udachny,66.4167,112.4,-24.54,100,98,1.97,RU,1738340750
76,mirny,62.5353,113.9611,-28.53,100,97,2.04,RU,1738340751
77,bubaque,11.2833,-15.8333,80.35,51,4,10.04,GW,1738340752
78,talnakh,69.4865,88.3972,-5.12,98,100,6.89,RU,1738340754
79,bethel,41.3712,-73.414,38.93,87,100,0.0,US,1738340756
80,vikhorevka,56.1201,101.1636,-26.99,100,27,1.03,RU,1738340757
81,saipan,15.1355,145.701,83.1,80,40,17.27,MP,1738340759
82,holualoa,19.6228,-155.9522,69.84,98,100,4.61,US,1738340744
83,sungai raya,0.7,108.9,76.73,84,98,6.35,ID,1738340761
84,stanley,54.868,-1.6985,39.22,90,75,1.14,GB,1738340762
85,west island,-12.1568,96.8225,80.58,89,100,6.91,CC,1738340764
86,greymouth,-42.4667,171.2,52.47,94,100,3.98,NZ,1738340765
87,surskoye,54.4821,46.7214,32.94,94,100,5.77,RU,1738340767
88,college,64.8569,-147.8028,-29.25,69,0,0.0,US,1738340769
89,thompson,55.7435,-97.8558,-27.24,75,20,4.61,CA,1738340770
90,margate,51.3813,1.3862,41.88,88,100,18.63,GB,1738340771
91,plastun,44.7561,136.2939,9.48,70,83,8.39,RU,1738340772
92,enriquillo,17.9,-71.2333,81.79,61,2,16.53,DO,1738340773
93,trancoso,22.7333,-102.3667,60.12,32,90,5.32,MX,1738340775
94,fort bragg,35.139,-79.006,66.81,78,40,17.27,US,1738340776
95,lazaro cardenas,17.9583,-102.2,81.21,39,0,0.4,MX,1738340777
96,lampazos de naranjo,27.0167,-100.5167,63.9,25,98,2.89,MX,1738340778
97,rio grande,-32.035,-52.0986,78.33,61,35,9.57,BR,1738340779
98,isafjordur,66.0755,-23.124,37.44,65,100,16.11,IS,1738340781
99,ushuaia,-54.8,-68.3,53.26,58,75,11.5,AR,1738340540
100,tiksi,71.6872,128.8694,-28.25,100,100,3.53,RU,1738340783
101,manokwari,-0.8667,134.0833,77.14,91,99,14.72,ID,1738340784
102,maceio,-9.6658,-35.7353,89.04,58,75,12.66,BR,1738340785
103,badger,64.8,-147.5333,-29.33,72,20,0.0,US,1738340787
104,alotau,-10.3069,150.4462,78.57,89,98,4.36,PG,1738340788
105,moose jaw,50.4001,-105.5344,10.67,85,100,19.57,CA,1738340789
106,pasni,25.2631,63.471,62.87,36,0,29.91,PK,1738340790
107,vilyuysk,63.7553,121.6247,-37.37,100,87,2.42,RU,1738340792
108,kruisfontein,-34.0033,24.7314,68.56,66,78,19.33,ZA,1738340793
109,sidi akkacha,36.4647,1.3026,53.89,66,17,9.8,DZ,1738340794
110,rasht,37.2808,49.5832,46.22,81,20,4.61,IR,1738340795
111,queenstown,-31.8976,26.8753,77.67,49,8,19.04,ZA,1738340796
112,nishinoomote,30.7333,131.0,58.01,64,81,14.5,JP,1738340798
113,nemuro,43.3236,145.575,28.72,76,80,16.4,JP,1738340799
114,lebu,-37.6167,-73.65,64.08,79,17,16.58,CL,1738340526
115,ust-nera,64.5667,143.2,-40.72,99,81,4.0,RU,1738340801
116,sitka,57.0531,-135.33,28.29,64,100,8.05,US,1738340795
117,iskateley,67.6803,53.1512,3.97,97,45,7.45,RU,1738340804
118,auki,-8.7676,160.7034,77.99,90,100,9.26,SB,1738340805
119,tobelo,1.7284,128.0095,78.62,85,100,5.21,ID,1738340806
120,miquelon,47.0975,-56.3814,24.42,64,100,40.29,PM,1738340807
121,kuqa,41.7278,82.9364,18.05,81,51,4.45,CN,1738340808
122,opuwo,-18.0607,13.84,87.35,27,91,12.8,NA,1738340810
123,chinde,26.8212,87.7095,59.11,61,0,6.6,NP,1738340811
124,bogo,11.0517,124.0055,79.03,82,96,11.3,PH,1738340812
125,limon,10.0,-83.0333,85.89,74,40,3.44,CR,1738340702
126,tanumah,27.1,44.1333,55.94,27,0,5.44,SA,1738340815
127,turochak,52.2576,87.1224,16.18,97,100,2.17,RU,1738340816
128,paracuru,-3.41,-39.0306,87.3,59,92,13.85,BR,1738340723
129,juneau,58.3019,-134.4197,19.4,73,75,9.22,US,1738340818
130,essaouira,31.5125,-9.77,67.5,32,20,20.71,MA,1738340820
131,aioun,16.6614,-9.6149,85.53,7,0,16.22,MR,1738340821
132,bonthe,7.5264,-12.505,87.19,60,46,14.54,SL,1738340822
133,guanare,9.0418,-69.7421,89.62,42,40,5.21,VE,1738340565
134,port elizabeth,-33.918,25.5701,72.32,80,35,8.01,ZA,1738340625
135,cloverdale,38.8055,-123.0172,44.46,95,100,5.93,US,1738340827
136,mkushi,-13.6202,29.3939,69.89,90,84,3.44,ZM,1738340828
137,villazon,-22.0866,-65.5942,64.27,26,0,2.57,BO,1738340829
138,chirilagua,13.2203,-88.1386,91.04,34,0,2.68,SV,1738340831
139,bardai,11.65,7.2333,86.67,13,32,9.24,NG,1738340832
140,san patricio,28.017,-97.5169,64.35,36,100,12.37,US,1738340833
141,topeka,39.0483,-95.678,40.42,83,100,19.57,US,1738340702
142,hirara,24.8,125.2833,68.27,83,100,14.97,JP,1738340836
143,macau,22.2006,113.5461,62.33,94,40,4.61,MO,1738340818
144,bafq,31.6128,55.4107,46.18,31,0,8.59,IR,1738340838
145,jamestown,42.097,-79.2353,40.01,97,100,3.44,US,1738340839
146,kourou,5.1552,-52.6478,83.73,64,94,10.49,GF,1738340840
147,belokurikha,51.9959,84.9896,10.53,97,100,1.25,RU,1738340842
148,hobyo,5.3505,48.5268,75.34,79,8,19.46,SO,1738340843
149,gadzhiyevo,69.2551,33.3362,28.54,97,100,1.92,RU,1738340844
150,soufriere,13.8562,-61.0566,85.6,32,20,24.16,LC,1738340845
151,alice springs,-23.7,133.8833,71.15,23,0,1.14,AU,1738340847
152,kingston,17.997,-76.7936,81.55,69,75,12.66,JM,1738340780
153,port alfred,-33.5906,26.891,71.19,84,28,5.01,ZA,1738340849
154,beau vallon,-20.4189,57.6953,82.63,74,20,6.91,MU,1738340850
155,mata-utu,-13.2816,-176.1745,83.19,76,100,16.4,WF,1738340851
156,puerto aysen,-45.4,-72.7,62.55,45,44,5.06,CL,1738340853
157,yashkul',46.1711,45.3435,40.55,80,90,9.4,RU,1738340854
158,hamilton,39.1834,-84.5333,54.99,96,100,16.11,US,1738340811
159,angel r. cabada,18.5833,-95.4333,75.0,95,43,13.76,MX,1738340856
160,constantia,44.1833,28.65,45.28,78,98,7.54,RO,1738340858
161,conception bay south,47.4999,-52.9981,23.45,69,93,30.09,CA,1738340700
162,hithadhoo,-0.6,73.0833,82.09,73,100,9.82,MV,1738340860
163,kavaratti,10.5669,72.642,81.61,74,97,5.64,IN,1738340861
164,remire-montjoly,4.9167,-52.2667,84.24,74,75,16.11,GF,1738340862
165,port mathurin,-19.6833,63.4167,81.03,86,100,22.86,MU,1738340864
166,mayenne,48.3333,-0.6667,41.27,99,100,2.44,FR,1738340865
167,roma,43.2128,-75.4557,34.68,84,100,1.01,US,1738340866
168,saint-joseph,-21.3667,55.6167,82.78,80,85,6.76,RE,1738340867
169,poshekhon'ye,58.4993,39.1353,34.32,93,100,5.77,RU,1738340868
170,aasiaat,68.7098,-52.8699,19.31,60,59,26.82,GL,1738340870
171,boulsa,12.6675,-0.5758,92.12,7,40,9.1,BF,1738340871
172,lethem,3.3803,-59.7968,93.02,38,98,13.76,GY,1738340872
173,kayangel,8.0823,134.7173,83.12,75,58,24.0,PW,1738340873
174,anadyr,64.75,177.4833,-1.7,71,40,11.18,RU,1738340875
175,kyren,51.6828,102.1408,-3.48,94,99,1.81,RU,1738340876
176,avarua,-21.2078,-159.775,80.65,83,98,8.05,CK,1738340877
177,trairi,-3.2778,-39.2689,87.49,58,97,12.44,BR,1738340726
178,margaret river,-33.95,115.0667,63.3,80,71,12.37,AU,1738340809
179,selfoss,63.9331,-20.9971,39.04,92,100,31.61,IS,1738340881
180,bengkulu,-3.8004,102.2655,77.36,88,97,6.26,ID,1738340882
181,chonchi,-42.6128,-73.8092,65.01,40,1,2.8,CL,1738340883
182,lind,56.1,8.9833,40.82,89,6,11.79,DK,1738340885
183,polyarnyy,69.1989,33.4478,28.72,97,100,1.79,RU,1738340887
184,toma,12.7667,-2.8833,94.08,7,26,8.55,BF,1738340888
185,valparaiso,-33.0393,-71.6273,73.47,55,0,13.8,CL,1738340668
186,hammerfest,70.6634,23.6821,28.85,100,75,4.61,NO,1738340891
187,lompoc,34.6391,-120.4579,47.14,81,40,3.44,US,1738340757
188,mana,5.6592,-53.7767,81.82,71,82,13.11,GF,1738340893
189,dudinka,69.4058,86.1778,-8.82,94,100,12.5,RU,1738340894
190,toliara,-23.35,43.6667,81.01,84,89,3.44,MG,1738340896
191,vorgashor,67.5833,63.95,-13.83,99,38,3.27,RU,1738340897
192,nouadhibou,20.931,-17.0347,75.18,29,0,20.71,MR,1738340898
193,princeville,45.7668,-61.2985,18.52,82,100,8.05,CA,1738340899
194,shingu,33.7333,135.9833,36.75,82,54,6.93,JP,1738340900
195,sao felix do xingu,-6.6447,-51.995,73.65,99,100,1.23,BR,1738340903
196,callao,-12.0667,-77.15,71.89,83,40,5.75,PE,1738340668
197,olonkinbyen,70.9221,-8.7187,28.81,86,100,18.1,SJ,1738340907
198,codajas,-3.8367,-62.0569,84.47,80,99,4.43,BR,1738340908
199,bennington,42.8781,-73.1968,40.48,74,100,0.0,US,1738340793
200,kalmunai,7.4167,81.8167,77.81,88,54,6.51,LK,1738340910
201,la passe,45.5549,-0.8967,49.24,72,13,7.9,FR,1738340911
202,penzance,50.1186,-5.5371,49.32,76,20,10.36,GB,1738340913
203,jiangyou,31.7667,104.7167,44.17,89,100,1.48,CN,1738340696
204,mejit,10.2753,170.8646,79.05,73,94,13.02,MH,1738340915
205,adelaide,-34.9333,138.6,69.17,61,0,13.8,AU,1738340916
206,novyy urengoy,66.0833,76.6333,-18.18,98,100,8.7,RU,1738340918
207,kittila,67.6647,24.8936,21.34,93,100,3.44,FI,1738340919
208,segou,13.4317,-6.2157,91.26,8,36,10.85,ML,1738340920
209,watampone,-4.5386,120.3279,75.4,92,100,4.23,ID,1738340921
210,uturoa,-16.7333,-151.4333,81.72,79,11,14.92,PF,1738340924
211,mount gambier,-37.8333,140.7667,53.01,92,19,6.04,AU,1738340926
212,balqash,46.8481,74.995,0.81,89,8,6.73,KZ,1738340927
213,tripoli,32.8752,13.1875,67.93,34,4,14.74,LY,1738340928
214,sampit,-2.5333,112.95,76.39,86,100,2.59,ID,1738340930
215,nar'yan-mar,67.6713,53.087,4.1,97,53,7.52,RU,1738340931
216,broken hill,-31.95,141.4333,71.85,24,0,11.9,AU,1738340932
217,ciudad lazaro cardenas,17.9583,-102.2,81.21,39,0,0.4,MX,1738340933
218,qaqortoq,60.7167,-46.0333,24.28,83,100,2.33,GL,1738340934
219,mossel bay,-34.1831,22.146,70.9,63,30,14.09,ZA,1738340936
220,dolyns'ka,48.1104,32.7645,46.47,81,100,5.82,UA,1738340937
221,yefremov,53.1481,38.0992,38.25,83,74,6.8,RU,1738340938
222,punta arenas,-53.15,-70.9167,57.31,51,75,19.57,CL,1738340831
223,hadibu,12.65,54.0333,73.81,71,76,14.94,YE,1738340941
224,dryden,49.7833,-92.7503,-5.51,77,0,8.05,CA,1738340879
225,pontes e lacerda,-15.2261,-59.3353,88.11,57,99,6.2,BR,1738340944
226,becerril,9.7041,-73.2793,100.11,32,33,3.94,CO,1738340945
227,usinsk,65.9939,57.5281,11.75,88,76,9.35,RU,1738340947
228,woolgoolga,-30.1106,153.2007,71.94,88,27,10.33,AU,1738340948
229,puerto deseado,-47.7503,-65.8938,58.69,49,28,24.85,AR,1738340949
230,wellston,39.1234,-82.5329,49.89,96,100,12.21,US,1738340950
231,pyapon,16.2833,95.6833,69.13,63,45,7.25,MM,1738340952
232,midvagur,62.0511,-7.1939,43.63,81,100,13.8,FO,1738340953
233,cheremukhovo,60.3484,59.9851,21.13,99,100,0.87,RU,1738340954
234,awjilah,29.1081,21.2869,64.26,34,51,9.33,LY,1738340956
235,harper,4.375,-7.7169,84.7,66,93,5.97,LR,1738340957
236,bamboo flat,11.7,92.7167,77.2,74,9,9.15,IN,1738340958
237,perth,-31.9333,115.8333,72.03,88,0,5.75,AU,1738340959
238,susuman,62.7833,148.1667,-44.43,99,82,0.67,RU,1738340960
239,fada,7.25,4.0667,98.83,24,48,2.77,NG,1738340962
240,freetown,8.484,-13.2299,85.71,66,40,11.5,SL,1738340963
241,glace bay,46.1969,-59.957,20.86,73,75,12.66,CA,1738340964
242,metropolis,37.1512,-88.732,53.78,91,100,8.05,US,1738340965
243,montepuez,-13.1256,38.9997,73.89,93,100,2.64,MZ,1738340966
244,sisimiut,66.9395,-53.6735,14.36,67,96,8.28,GL,1738340968
245,juan griego,11.0817,-63.9655,83.5,63,18,14.18,VE,1738340969
246,st. john's,47.5649,-52.7093,23.56,66,75,36.82,CA,1738340970
247,petropavlovsk-kamchatsky,53.0452,158.6483,25.39,39,0,29.08,RU,1738340971
248,llanera,43.4619,-5.9311,55.08,44,0,4.61,ES,1738340974
249,saint-philippe,-21.3585,55.7679,81.18,79,87,6.58,RE,1738340975
250,alofi,-19.0595,-169.9187,78.69,89,75,4.61,NU,1738340976
251,wuchang,44.9143,127.15,-13.09,100,32,2.95,CN,1738340977
252,egilsstadir,65.2653,-14.3948,37.31,52,20,4.61,IS,1738340980
253,whitehorse,60.7161,-135.0538,-10.43,69,100,9.22,CA,1738340981
254,veinticinco de mayo,-35.4323,-60.1727,90.99,40,0,3.0,AR,1738340982
255,taoudenni,22.6783,-3.9836,75.2,12,0,15.61,ML,1738340983
256,trail,49.0998,-117.7022,28.69,98,100,2.51,CA,1738340985
257,bayan,46.0833,127.4,-15.48,100,23,1.61,CN,1738340986
258,qamdo,31.1667,97.2333,26.67,51,0,8.79,CN,1738340987
259,afaahiti,-17.75,-149.2833,78.69,82,69,15.5,PF,1738340988
260,arish,31.1316,33.7984,62.78,67,40,8.05,EG,1738340989
261,ancud,-41.8697,-73.8203,59.86,59,23,6.04,CL,1738340804
262,talcahuano,-36.7167,-73.1167,73.08,64,20,14.97,CL,1738340716
263,salinas,36.6777,-121.6555,48.51,89,0,4.61,US,1738340993
264,berdigestyakh,62.0989,126.6992,-39.01,100,92,0.34,RU,1738340994
265,levuka,50.1834,-105.4011,10.13,85,100,19.57,CA,1738340997
266,smithers,54.7804,-127.1743,16.12,92,100,2.3,CA,1738340999
267,haiku-pauwela,20.9219,-156.3051,72.18,86,100,11.01,US,1738341000
268,hailar,49.2,119.7,-26.72,100,95,3.74,CN,1738341001
269,ed damer,17.5928,33.9592,77.58,20,71,11.03,SD,1738341002
270,christchurch,-43.5333,172.6333,57.33,90,20,4.61,NZ,1738340959
271,nueil-les-aubiers,46.9377,-0.5887,43.74,94,100,14.32,FR,1738341005
272,ingersoll,43.0334,-80.883,36.57,98,100,6.22,CA,1738341006
273,murghob,38.1702,73.9667,-20.24,94,35,3.96,TJ,1738341007
274,ofunato,39.0717,141.7167,31.37,70,71,13.91,JP,1738341008
275,cannonvale,-20.2833,148.7,81.79,90,100,26.66,AU,1738341010
276,fale old settlement,-9.3852,-171.2468,83.7,73,65,19.24,TK,1738341011
277,morrinhos,-17.7311,-49.0994,74.16,83,100,8.57,BR,1738341013
278,bayanhongor,46.7167,100.1167,-17.63,92,26,3.22,MN,1738341015
279,rengasdengklok,-6.1592,107.2981,77.45,85,99,4.9,ID,1738341016
280,thinadhoo,0.5333,72.9333,82.13,74,83,9.33,MV,1738341017
281,lihue,21.9789,-159.3672,71.19,83,75,4.61,US,1738341018
282,rong kwang,18.339,100.3174,75.43,56,76,1.92,TH,1738341020
283,fortuna,40.5982,-124.1573,52.36,94,100,21.85,US,1738341021
284,corner brook,48.9667,-57.9484,17.4,80,100,18.77,CA,1738340910
285,kidal,18.4411,1.4078,82.24,10,41,3.4,ML,1738341023
286,sao paulo de olivenca,-3.3783,-68.8725,85.23,67,100,1.9,BR,1738341024
287,kaliyaganj,25.6333,88.3167,64.36,42,0,4.34,IN,1738341026
288,weno,7.4515,151.8468,82.56,78,21,23.13,FM,1738341027
289,pottenstein,49.7722,11.4092,38.82,87,100,1.59,DE,1738341028
290,brookings,44.3114,-96.7984,30.45,79,0,9.22,US,1738340804
291,turkestan,43.3333,68.25,30.09,72,95,4.36,KZ,1738341031
292,baardheere,2.3446,42.2764,92.43,20,79,9.71,SO,1738341032
293,sinan,34.8262,126.1086,40.1,95,100,15.05,KR,1738341033
294,zwedru,6.0667,-8.1281,93.76,34,90,1.25,LR,1738341034
295,sao joao da barra,-21.6403,-41.0511,89.69,85,56,18.5,BR,1738341035
296,makueni boma,-1.8041,37.6203,71.31,60,84,4.45,KE,1738341038
297,zastron,-30.3023,27.084,81.95,19,64,18.86,ZA,1738341039
298,wynyard,-41.0,145.7167,57.07,78,11,10.2,AU,1738341040
299,susanville,40.4163,-120.653,42.64,52,75,3.44,US,1738340857
300,tura,25.5198,90.2201,60.4,40,1,4.59,IN,1738341043
301,nelson bay,-32.7167,152.15,72.09,89,30,8.01,AU,1738341044
302,sabang,5.8933,95.3214,81.23,75,14,15.03,ID,1738341045
303,gizo,-8.103,156.8419,82.67,79,100,14.72,SB,1738341046
304,edson,53.5835,-116.4356,6.94,85,100,9.22,CA,1738341048
305,lashio,22.9333,97.75,51.55,60,10,1.68,MM,1738341049
306,bejaia,36.7559,5.0843,53.65,78,98,4.5,DZ,1738341050
307,monrovia,6.3005,-10.7969,83.88,70,79,10.8,LR,1738341053
308,neryungri,56.6709,124.6491,-12.82,94,100,2.13,RU,1738341054
309,saint-francois,46.4154,3.9054,42.24,73,100,6.91,FR,1738341055
310,rovnoye,50.7765,46.0509,33.8,84,71,1.7,RU,1738341056
311,hermanus,-34.4187,19.2345,70.81,68,0,11.72,ZA,1738341057
312,takab,36.4009,47.1133,24.96,57,58,5.93,IR,1738341058
313,keflavik,64.0049,-22.5624,39.63,100,100,51.79,IS,1738341059
314,kunyang,27.6658,120.5658,54.5,90,71,3.76,CN,1738341061
315,kuta,-8.7233,115.1723,80.55,94,40,5.75,ID,1738341062
316,dunedin,-45.8742,170.5036,55.8,95,29,1.99,NZ,1738341063
317,vilyuchinsk,52.9306,158.4028,26.87,75,94,11.23,RU,1738341064
318,belyy yar,53.6039,91.3903,-0.51,92,100,2.24,RU,1738341065
319,naze,28.3667,129.4833,61.72,71,86,14.27,JP,1738341066
320,mumbwa,-14.9783,27.0619,66.88,94,100,3.38,ZM,1738341067
321,motygino,58.1831,94.7592,-29.87,100,16,3.6,RU,1738341068
322,waingapu,-9.6567,120.2641,78.69,83,96,8.16,ID,1738341070
323,alvaraes,-3.2208,-64.8042,82.27,86,73,2.71,BR,1738341071
324,san luis de la loma,17.2706,-100.8939,85.1,37,4,4.88,MX,1738341072
325,nuku'alofa,-21.1333,-175.2,73.74,100,100,9.22,TO,1738341073
326,songling,31.1933,120.7176,45.52,93,100,7.38,CN,1738341075
327,sokcho,38.2083,128.5911,38.01,60,100,6.91,KR,1738341076
328,kachug,53.9606,105.8817,-29.56,100,58,1.07,RU,1738341077
329,tazovsky,67.4667,78.7,-16.2,96,100,8.37,RU,1738340915
330,moranbah,-22.0016,148.0466,74.44,84,100,20.67,AU,1738341080
331,yarmouth,41.7057,-70.2286,41.34,91,100,10.36,US,1738341081
332,revda,56.801,59.9303,28.92,94,100,9.53,RU,1738341083
333,amga,60.8953,131.9608,-44.91,100,75,0.45,RU,1738341084
334,qui nhon,13.7667,109.2333,67.24,87,69,3.56,VN,1738341085
335,yeppoon,-23.1333,150.7333,78.58,74,100,18.77,AU,1738340980
336,yerofey pavlovich,53.9667,121.9667,-6.56,94,100,2.35,RU,1738341088
337,tulun,54.5611,100.5792,-23.98,100,68,0.69,RU,1738341089
338,cockburn town,21.4612,-71.1419,80.56,83,40,17.27,TC,1738341090
339,mundri,-6.9558,111.71,74.57,93,96,1.97,ID,1738341092
340,pacific grove,36.6177,-121.9166,49.08,89,0,5.01,US,1738341093
341,bloomfield,40.8068,-74.1854,41.68,92,100,3.44,US,1738341094
342,sambava,-14.2667,50.1667,80.71,84,98,1.77,MG,1738341096
343,la'ie,21.6477,-157.9253,73.11,80,69,5.01,US,1738341097
344,steinkjer,64.193,11.3851,24.73,92,29,2.84,NO,1738341098
345,macapa,0.0389,-51.0664,89.58,62,75,11.5,BR,1738341099
346,cidade velha,14.9167,-23.6167,79.27,53,0,21.85,CV,1738341101
347,bhimunipatnam,17.8833,83.4333,74.71,76,36,6.4,IN,1738341103
348,zhangjiakou,40.81,114.8794,18.18,73,3,2.13,CN,1738341105
349,nong wua so,17.1626,102.5727,73.78,42,83,6.53,TH,1738341107
350,galesong,-5.3166,119.3661,77.79,85,98,4.41,ID,1738341108
351,reggane,26.7158,0.1714,66.6,25,0,16.71,DZ,1738341109
352,howrah,22.5892,88.3103,75.2,88,20,5.75,IN,1738341110
353,mongo,12.1844,18.693,80.78,13,21,6.53,TD,1738341111
354,mil'kovo,55.6078,37.7956,37.63,65,93,8.48,RU,1738341113
355,port douglas,-16.4833,145.4667,77.81,94,100,5.35,AU,1738341114
356,alo,6.5486,4.2686,84.92,70,65,10.18,NG,1738341115
357,la jolla,32.8473,-117.2742,53.94,79,0,4.0,US,1738341060
358,shalkar,47.8288,59.6258,24.12,96,100,6.71,KZ,1738341117
359,abepura,-2.6333,140.5833,76.01,100,20,1.14,ID,1738341119
360,amos,48.5669,-78.1162,-0.9,89,73,4.09,CA,1738341002
361,banda aceh,5.5577,95.3222,76.32,88,1,12.21,ID,1738341121
362,ilha de mocambique,-15.0342,40.7358,81.99,78,86,2.66,MZ,1738341122
363,castillos,-34.1667,-53.8333,79.75,48,78,10.54,UY,1738341123
364,port lincoln,-34.7333,135.8667,65.39,79,0,15.32,AU,1738341125
365,san antonio de pale,-1.4014,5.6325,81.57,77,91,7.16,GQ,1738341126
366,mogadishu,2.0371,45.3438,76.35,85,41,21.3,SO,1738341127
367,mount isa,-20.7333,139.5,91.17,38,2,8.05,AU,1738341128
368,la ronge,55.1001,-105.2842,-28.95,68,75,2.3,CA,1738341130
369,new norfolk,-42.7826,147.0587,57.92,97,38,1.72,AU,1738341131
370,abou el hassan,36.4166,1.1962,53.04,73,16,9.55,DZ,1738341132
371,mora,11.0461,14.1401,87.1,11,40,5.23,CM,1738340904
372,buka,40.8108,69.1986,33.17,67,20,5.41,UZ,1738341136
373,khandyga,62.6667,135.6,-48.62,100,59,0.74,RU,1738341137
374,zouerate,22.7187,-12.4521,69.85,18,0,18.9,MR,1738341138
375,praia da vitoria,38.7333,-27.0667,62.85,94,75,20.42,PT,1738341139
376,inhambane,-23.865,35.3833,79.65,73,1,9.62,MZ,1738341140
377,san jorge,-31.8962,-61.8598,95.54,20,0,7.16,AR,1738341142
378,quang ngai,15.1167,108.8,64.13,92,96,3.33,VN,1738341004
379,oltu,40.5498,42.0013,25.72,67,57,6.89,TR,1738341145
380,ketchikan,55.3422,-131.6461,27.99,89,78,3.0,US,1738341146
381,syktyvkar,61.6764,50.8099,33.53,100,100,6.71,RU,1738341147
382,ourem,39.6417,-8.5919,59.25,66,5,3.44,PT,1738341149
383,leava,-14.3,-178.1667,83.16,77,100,20.76,WF,1738341150
384,tymovskoye,50.8456,142.655,0.9,99,100,4.5,RU,1738341151
385,zaozersk,69.4005,32.4476,26.78,98,100,2.13,RU,1738341152
386,luderitz,-26.6481,15.1594,67.86,78,4,22.84,NA,1738341153
387,broome,42.2506,-75.833,36.46,91,100,4.61,US,1738341155
388,zafferana etnea,37.6822,15.108,53.85,85,100,1.07,IT,1738341156
389,daru,-9.0763,143.2092,78.51,91,100,10.65,PG,1738341157
390,ouro preto do oeste,-10.7481,-62.2158,84.99,67,100,5.17,BR,1738341073
391,srandakan,-7.9386,110.2506,77.34,87,100,5.84,ID,1738341160
392,lamu,-2.2717,40.902,77.52,86,40,15.73,KE,1738341162
393,hilo,19.7297,-155.09,74.93,95,75,9.22,US,1738341163
394,sheridan,44.8333,-106.9173,35.46,71,22,1.59,US,1738340945
395,saint-louis,16.3333,-15.0,88.83,7,0,17.43,SN,1738341166
396,bandipura,34.4167,74.65,39.67,63,100,7.34,IN,1738341167
397,puerto baquerizo moreno,-0.9,-89.6,76.19,100,100,6.91,EC,1738341168
398,pont rouge,48.8833,-72.0825,5.99,78,22,6.42,CA,1738341170
399,oskarshamn,57.2645,16.4484,38.98,84,73,8.19,SE,1738341171
400,machico,32.7,-16.7667,69.71,59,20,11.5,PT,1738341172
401,yoro,15.1333,-87.1333,72.12,94,40,6.91,HN,1738341173
402,tazacorte,28.629,-17.9293,69.15,59,40,16.11,ES,1738341175
403,sena madureira,-9.0656,-68.6569,83.35,81,90,2.01,BR,1738341176
404,scottsbluff,41.8666,-103.6672,35.83,48,0,6.91,US,1738340920
405,livadiya,42.8692,132.6764,12.07,72,1,9.89,RU,1738341178
406,antsohihy,-14.8796,47.9875,76.53,93,43,2.08,MG,1738341179
407,mount pleasant,32.7941,-79.8626,70.0,88,40,14.97,US,1738341181
408,ca mau,9.1769,105.15,73.42,70,100,1.12,VN,1738341182
409,jolo,6.05,121.0167,76.42,90,19,0.85,PH,1738341183
410,newtown trim,53.5561,-6.77,40.21,91,36,4.72,IE,1738341184
411,churachandpur,24.3333,93.6667,56.19,79,34,1.81,IN,1738341186
412,ta`u,-14.2336,-169.5144,81.99,77,99,16.69,AS,1738341187
413,bakal,54.9417,58.8083,26.71,97,100,6.17,RU,1738341188
414,yung shue wan,22.2333,114.1167,65.75,87,91,1.01,HK,1738341190
415,island harbour,50.724,-1.2758,48.27,81,30,1.99,GB,1738341191
416,ponta delgada,37.7333,-25.6667,65.19,77,75,19.57,PT,1738341192
417,goondiwindi,-28.55,150.3167,74.19,70,0,11.61,AU,1738341193
418,ulladulla,-35.35,150.4667,64.69,94,86,3.38,AU,1738341196
419,sao jose do egito,-7.4789,-37.2744,91.08,33,21,5.86,BR,1738341197
420,aykhal,66.0,111.5,-19.16,99,99,3.51,RU,1738341198
421,kyzyl-mazhalyk,51.1333,90.6,0.93,91,100,1.36,RU,1738341199
422,wanning,18.8003,110.3967,66.34,95,50,4.23,CN,1738341201
423,scarborough,54.2797,-0.4044,41.85,46,100,1.01,GB,1738341054
424,kharan,28.5833,65.4167,49.28,39,0,11.43,PK,1738341203
425,miranda,3.2499,-76.2281,81.01,67,82,3.42,CO,1738341204
426,murzuq,25.9155,13.9184,65.57,22,98,10.71,LY,1738341205
427,ha'il,27.5219,41.6907,57.22,33,0,4.61,SA,1738341207
428,tadine,-21.55,167.8833,77.9,85,35,13.91,NC,1738341208
429,saint-denis,48.9167,2.3333,38.98,93,100,14.97,FR,1738341209
430,yuanping,38.7153,112.7575,24.22,66,31,1.3,CN,1738341210
431,punto fijo,11.6956,-70.1996,83.25,62,38,30.27,VE,1738341211
432,vila franca do campo,37.7167,-25.4333,64.89,99,100,13.2,PT,1738341213
433,crane,31.3974,-102.3501,53.11,32,0,11.05,US,1738341214
434,al qusayr,34.5091,36.5798,50.09,76,8,6.24,SY,1738341215
435,le port,-20.9373,55.2919,82.36,100,88,4.79,RE,1738341216
436,jayapura,-2.5333,140.7,76.39,90,100,2.89,ID,1738341132
437,anori,-3.7728,-61.6442,86.9,67,92,4.61,BR,1738341220
438,leirvik,59.7798,5.5005,37.81,93,40,3.44,NO,1738341221
439,oranjemund,-28.55,16.4333,66.31,78,18,16.69,NA,1738341222
440,cabaiguan,22.0789,-79.4992,81.1,59,24,12.71,CU,1738341223
441,westport,41.1415,-73.3579,40.26,89,100,3.44,US,1738341224
442,behbahan,30.5959,50.2417,59.25,37,0,5.03,IR,1738341226
443,coahuayana de hidalgo,18.7,-103.6583,87.57,27,2,3.13,MX,1738341227
444,morondava,-20.2833,44.2833,82.96,82,14,7.45,MG,1738341228
445,karratha,-20.7377,116.8463,88.16,63,50,12.26,AU,1738341230
446,meadow lake,34.8014,-106.5436,41.67,59,0,5.3,US,1738341231
447,whakatane,-37.9585,176.9854,63.52,99,100,3.51,NZ,1738341232
448,muravlenko,63.7898,74.523,-9.51,98,96,9.04,RU,1738341233
449,chui,-33.6971,-53.4616,79.99,51,41,12.55,UY,1738341234
450,ghanzi,-21.5667,21.7833,83.48,28,57,6.8,BW,1738341236
451,saint-leu,-21.15,55.2833,83.26,100,57,3.91,RE,1738341237
452,vorkuta,67.5,64.0,-15.92,100,39,3.2,RU,1738341238
453,kununurra,-15.7667,128.7333,84.18,84,75,13.8,AU,1738341239
454,bad lobenstein,50.4493,11.6381,32.81,44,74,2.33,DE,1738341240
455,filadelfia,39.9523,-75.1638,45.27,96,100,10.36,US,1738341190
456,sao vicente,-23.9631,-46.3919,79.99,35,100,3.44,BR,1738341243
457,taulaga,-11.0553,-171.0883,83.5,68,91,19.22,AS,1738341244
458,dali,25.7,100.1833,43.18,68,4,6.55,CN,1738341245
459,illela,13.7292,5.2975,86.7,12,19,7.2,NG,1738341246
460,batibo,5.8358,9.8553,80.15,26,100,3.06,CM,1738341248
461,portland,45.5234,-122.6762,46.81,95,100,9.22,US,1738341022
462,milliken,40.3294,-104.8552,40.12,45,1,1.01,US,1738341250
463,uruzgan,32.8333,66.0,34.3,43,0,7.18,AF,1738341251
464,kaka,37.3482,59.6143,38.68,55,0,7.18,TM,1738341252
465,almeirim,-1.5233,-52.5817,85.95,64,86,4.74,BR,1738341254
466,wenchang,30.904,118.4887,43.02,96,100,6.49,CN,1738341255
467,bryne,58.7354,5.6477,37.56,84,75,0.0,NO,1738341256
468,vernon,50.2581,-119.2691,30.92,89,100,1.14,CA,1738341257
469,blagoveshchensk,50.2667,127.5333,-1.59,71,20,2.24,RU,1738341258
470,zeya,53.75,127.2667,-4.09,93,100,2.39,RU,1738341260
471,el porvenir,13.7617,-87.3458,91.36,35,0,4.09,HN,1738341261
472,vanimo,-2.6741,141.3028,77.92,91,100,3.91,PG,1738341262
473,gaalkacyo,6.7697,47.4308,75.7,45,7,22.95,SO,1738341263
474,lorengau,-2.0226,147.2712,81.72,80,100,10.13,PG,1738341264
475,archangelos,36.2149,28.1149,60.31,85,2,8.88,GR,1738341266
476,bukama,-9.2,25.85,69.76,96,73,3.2,CD,1738341267
477,moron,-34.6534,-58.6198,86.97,52,20,21.0,AR,1738341268
478,port blair,11.6667,92.75,78.06,74,5,9.55,IN,1738341271
479,bandarbeyla,9.4942,50.8122,74.28,76,45,20.83,SO,1738341272
480,ola,59.5833,151.2833,-13.49,85,10,9.28,RU,1738341273
481,flying fish cove,-10.4217,105.6791,78.48,94,100,10.36,CX,1738341275
482,gwanda,-20.9333,29.0,81.32,32,5,3.44,ZW,1738341276
483,mitu,1.1983,-70.1733,82.71,75,44,2.89,CO,1738341277
484,harstad,68.799,16.5293,37.15,81,100,8.01,NO,1738341278
485,imbituba,-28.24,-48.6703,77.13,75,46,9.26,BR,1738341015
486,san julian,21.0167,-102.1667,67.59,28,11,6.29,MX,1738341281
487,torbat-e heydariyeh,35.274,59.2195,35.55,44,0,5.01,IR,1738341282
488,champerico,14.3,-91.9167,85.14,60,0,8.46,GT,1738341283
489,hasaki,35.7333,140.8333,45.19,48,65,6.8,JP,1738341284
490,fort william,56.8165,-5.1121,38.41,96,98,2.1,GB,1738341285
491,lerwick,60.1545,-1.1494,42.51,78,6,5.39,GB,1738341287
492,sandnessjoen,66.0217,12.6316,35.71,87,75,9.22,NO,1738341288
493,sorsk,54.0033,90.2467,7.93,97,100,3.2,RU,1738341289
494,palikir - national government center,6.9248,158.1611,81.34,78,100,5.75,FM,1738341290
495,saint-pierre,-21.3393,55.4781,83.88,61,100,6.91,RE,1738341291
496,happy valley-goose bay,53.3168,-60.3315,-0.09,50,20,21.85,CA,1738341010
497,miyaly,48.8844,53.7836,20.28,96,46,6.04,KZ,1738341294
498,el nido,11.1858,119.3956,76.14,93,85,9.86,PH,1738341295
499,fukuecho,32.6881,128.8419,53.98,62,96,17.0,JP,1738341296
500,ondangwa,-17.9167,15.95,91.2,24,88,5.61,NA,1738341297
501,malango,-2.9627,119.9001,67.96,99,100,1.59,ID,1738341298
502,vila velha,-20.3297,-40.2925,89.55,62,40,19.57,BR,1738341300
503,borovichi,58.3878,33.9155,36.64,95,100,6.89,RU,1738341196
504,nabire,-3.3667,135.4833,75.51,95,100,4.0,ID,1738341302
505,heber springs,35.4915,-92.0313,56.34,68,14,7.63,US,1738341106
506,laguna,38.421,-121.4238,46.54,88,100,3.44,US,1738341304
507,tanabe,33.7333,135.3667,38.41,75,48,6.4,JP,1738341306
508,severo-yeniseyskiy,60.3725,93.0408,-29.4,100,47,3.13,RU,1738341307
509,north bend,43.4065,-124.2243,51.71,87,100,16.11,US,1738341308
510,howard springs,-12.497,131.047,82.31,88,100,8.43,AU,1738341309
511,sur,22.5667,59.5289,67.91,53,30,13.02,OM,1738341311
512,n'dalatando,-9.2978,14.9116,72.23,86,90,3.76,AO,1738341312
513,castelli,-25.9468,-60.6195,100.42,22,0,5.32,AR,1738341313
514,borogontsy,62.6683,131.1683,-47.2,100,61,1.74,RU,1738341314
515,okhotsk,59.3833,143.3,-7.89,76,0,15.77,RU,1738341315
516,dakhla,23.6848,-15.958,68.02,64,0,31.07,EH,1738341316
517,charata,-27.2144,-61.188,95.54,28,0,3.76,AR,1738341318
518,kirakira,-10.4544,161.9205,79.65,85,98,9.48,SB,1738341319
519,spring creek,40.7266,-115.5859,15.49,33,100,5.95,US,1738341320
520,cadale,2.7603,46.3222,76.17,83,25,20.0,SO,1738341321
521,chilecito,-29.1619,-67.4974,86.47,34,0,5.5,AR,1738341322
522,smara,26.7384,-11.6719,65.61,40,0,24.2,EH,1738341324
523,northam,51.0333,-4.2167,46.8,82,1,1.01,GB,1738341325
524,guerrero negro,27.9769,-114.0611,60.42,60,0,6.71,MX,1738341326
525,erbil,36.1926,44.0106,49.82,37,0,0.0,IQ,1738341327
526,atafu village,-8.5421,-172.5159,83.01,74,48,18.05,TK,1738341329
527,kagoro,9.6,8.3833,87.4,12,44,2.66,NG,1738341330
528,polavaram,17.2467,81.6439,70.02,67,14,3.06,IN,1738341331
529,ar raqqah,35.95,39.0167,53.46,35,2,3.51,SY,1738341332
530,pirallahi,40.4723,50.333,44.74,78,19,10.74,AZ,1738341334
531,richards bay,-28.783,32.0377,79.47,85,79,6.24,ZA,1738341335
532,ad dabbah,18.05,30.95,73.24,17,57,11.16,SD,1738341336
533,sheringham,52.9408,1.2093,44.65,81,100,7.25,GB,1738341337
534,birobidzhan,48.8,132.95,8.35,97,100,1.88,RU,1738341339
535,san luis,-33.295,-66.3356,93.72,21,0,5.23,AR,1738341145
536,phon charoen,18.0333,103.1667,70.79,52,78,3.62,TH,1738341342
537,pierre,44.3683,-100.351,25.72,86,0,6.91,US,1738341344
538,la punta,-33.1837,-66.3127,92.93,22,0,3.49,AR,1738341345
539,suzhou,31.3114,120.6181,45.32,94,100,7.54,CN,1738341346
540,cromer,52.9312,1.2989,44.6,81,100,5.99,GB,1738341347
541,mussoorie,30.45,78.0833,39.83,52,0,6.15,IN,1738341348
542,brigantine,39.4101,-74.3646,46.6,98,100,5.75,US,1738341350
543,hanceville,34.0607,-86.7675,55.31,94,100,7.09,US,1738341259
544,pago pago,-14.2781,-170.7025,82.38,73,84,15.35,AS,1738341299
545,kargopol',61.5071,38.9456,34.7,99,100,9.82,RU,1738341355
546,gobabis,-22.45,18.9667,89.71,13,19,10.27,NA,1738341356
547,coracora,-15.0333,-73.7833,62.2,66,57,6.58,PE,1738341357
548,ingeniero jacobacci,-41.3427,-69.5448,77.22,16,17,7.9,AR,1738341358
549,madinat ash shamal,26.1293,51.2009,63.7,69,16,12.1,QA,1738341359
550,sorong,-0.8833,131.25,80.56,82,100,13.11,ID,1738341360
551,tateyama,34.9833,139.8667,45.68,41,99,9.08,JP,1738341356
552,erie,42.7667,-78.6664,38.59,84,100,2.01,US,1738341363
553,praia,14.9215,-23.5087,79.34,53,0,21.85,CV,1738341364
554,ambikapur,23.1167,83.2,61.5,32,0,2.13,IN,1738341365
555,choibalsan,48.0667,114.5,-5.01,98,88,2.46,MN,1738341366
556,manaure,11.7751,-72.4445,87.85,44,100,32.88,CO,1738341368
557,cosala,24.4125,-106.6908,76.14,13,0,2.44,MX,1738341369
558,iringa,-7.7667,35.7,61.03,91,18,3.24,TZ,1738341370
559,puerto ayacucho,5.6639,-67.6236,94.41,42,85,2.37,VE,1738341371
560,bijeljina,44.7569,19.2161,52.81,74,72,6.08,BA,1738341373
561,fort mcmurray,56.7268,-111.381,-13.41,76,100,6.91,CA,1738341374
562,arraial do cabo,-22.9661,-42.0278,89.46,48,40,14.97,BR,1738341375
563,prince rupert,54.3161,-130.3201,29.89,80,24,8.05,CA,1738341376
564,san juan de miraflores,-12.1629,-76.9635,70.32,78,73,7.81,PE,1738341378
565,strelka,58.0728,93.0344,-21.77,98,12,4.41,RU,1738341380
566,mpanda,-6.3655,31.0409,67.42,91,47,1.92,TZ,1738341381
567,banlung,13.7468,107.0045,66.72,60,92,2.84,KH,1738341383
568,mae hong son,19.3003,97.9685,62.42,51,54,1.52,TH,1738341384
569,bodo,67.28,14.405,39.24,66,40,14.97,NO,1738341385
570,ar ruways,24.1103,52.7306,62.89,57,0,11.18,AE,1738341386
571,paraiso,9.8383,-83.8656,76.5,68,52,8.05,CR,1738341387
572,aztec,36.8222,-107.9929,20.61,49,0,5.88,US,1738341389
573,tarawa,1.419,172.984,80.42,74,97,15.95,KI,1738341390
574,luorong,24.4058,109.6086,59.04,92,98,4.36,CN,1738341391
575,viru,-8.4167,-78.75,82.92,54,52,10.33,PE,1738341392
576,dalandzadgad,43.5708,104.425,10.81,64,41,7.85,MN,1738341394
577,dara,15.3484,-15.4799,91.74,6,0,16.24,SN,1738341395
